{
    "Ethels": [
        {
            "id": "1",
            "slug": "kinder-scout",
            "name": "Kinder Scout",
            "gridreference": "SK084875",
            "image": "kinder-scout.webp",
            "image_attribute": "Photo by <a href=\"https://unsplash.com/@amitjagnade?utm_source=unsplash&utm_medium=referral&utm_content=creditCopyText\">Amit Jagnade</a> on <a href=\"https://unsplash.com/s/photos/kinder-scout?utm_source=unsplash&utm_medium=referral&utm_content=creditCopyText\">Unsplash</a>",
            "height": "636",
            "prominence": "497",
            "lat": "53.384281",
            "lon": "-1.8751769",
            "county": "Derbyshire",
            "moderate": "https://explore.osmaps.com/route/517077/trail-magazine-kinder-scout--?lat=53.394333&lon=-1.925337&zoom=12.5276&overlays=&style=Standard&type=2d&placesCategory="
        },
        {
            "id": "2",
            "slug": "bleaklow",
            "name": "Bleaklow",
            "gridreference": "SK094960",
            "image": "bleaklow.webp",
            "image_attribute": "Photo by <a href=\"https://unsplash.com/@milltownphotography?utm_source=unsplash&utm_medium=referral&utm_content=creditCopyText\">Sam Barber</a> on <a href=\"https://unsplash.com/s/photos/bleaklow?utm_source=unsplash&utm_medium=referral&utm_content=creditCopyText\">Unsplash</a>",
            "height": "633",
            "prominence": "128",
            "lat": "53.460666",
            "lon": "-1.8598922",
            "county": "Derbyshire",
            "moderate": "https://explore.osmaps.com/route/4226292/trail-magazine-february-2020--bleaklow-head-peak-district?lat=53.459233&lon=-1.863429&zoom=14.1886&overlays=&style=Standard&type=2d&placesCategory="
        },
        {
            "id": "3",
            "slug": "higher-shelf-stones",
            "name": "Higher Shelf Stones",
            "gridreference": "SK089948",
            "image": "higher-shelf-stones.webp",
            "image_attribute": "Photo by <a href=\"https://www.flickr.com/photos/hillplodder/\">@hillplodder</a> on Flickr",
            "height": "621",
            "prominence": "15",
            "lat": "53.449889",
            "lon": "-1.8674563",
            "county": "Derbyshire",
            "easy": "https://explore.osmaps.com/route/12886052/ethels-higher-shelf-stones?lat=53.443006&lon=-1.875189&zoom=13.3605&overlays=&style=Standard&type=2d&placesCategory="
        },
        {
            "id": "4",
            "slug": "grindslow-knoll",
            "name": "Grindslow Knoll",
            "gridreference": "SK110868",
            "image": "grindslow-knoll.webp",
            "image_attribute": "Photo by <a href=\"https://www.geograph.org.uk/profile/19028\">Jonathan Clitheroe</a> and licensed for reuse under this <a rel=\"license\" href=\"http://creativecommons.org/licenses/by-sa/2.0/\" class=\"nowrap\">Creative Commons Licence</a>",
            "height": "601",
            "prominence": "15",
            "lat": "53.377941",
            "lon": "-1.8361122",
            "county": "Derbyshire"
        },
        {
            "id": "5",
            "slug": "black-hill",
            "name": "Black Hill",
            "gridreference": "SE078046",
            "image": "black-hill.webp",
            "image_attribute": "Photo by <a title=\"View profile\" href=\"https://www.geograph.org.uk/profile/40672\">Neil Theasby</a> and licensed for reuse under this <a rel=\"license\" href=\"http://creativecommons.org/licenses/by-sa/2.0/\" class=\"nowrap\">Creative Commons Licence</a>",
            "height": "582",
            "prominence": "165",
            "lat": "53.537992",
            "lon": "-1.8837793",
            "county": "Derbyshire / West Yorkshire"
        },
        {
            "id": "6",
            "slug": "brown-knoll",
            "name": "Brown Knoll",
            "gridreference": "SK083851",
            "image": "brown-knoll.webp",
            "image_attribute": "Photo by <a title=\"View profile\" href=\"https://www.geograph.org.uk/profile/41502\">Philip Barker</a> and licensed for reuse under this <a rel=\"license\" href=\"http://creativecommons.org/licenses/by-sa/2.0/\" class=\"nowrap\">Creative Commons Licence</a>",
            "height": "569",
            "prominence": "36",
            "lat": "53.36271",
            "lon": "-1.8767424",
            "county": "Derbyshire"
        },
        {
            "id": "7",
            "slug": "shining-tor",
            "name": "Shining Tor",
            "gridreference": "SJ994737",
            "image": "shining-tor.webp",
            "image_attribute": "Photo &copy;&nbsp;<a href=\"https://www.geograph.org.uk/profile/42541\" title=\"View profile\">Bill Boaden</a> (<a href=\"http://creativecommons.org/licenses/by-sa/2.0/\">cc-by-sa/2.0</a>)",
            "height": "559",
            "prominence": "236",
            "lat": "53.260301",
            "lon": "-2.0104537",
            "county": "Cheshire / Derbyshire"
        },
        {
            "id": "8",
            "slug": "axe-edge-moor",
            "name": "Axe Edge Moor",
            "gridreference": "SK035706",
            "image": "axe-edge-moor.webp",
            "image_attribute": "Photo by <a href=\"https://www.geograph.org.uk/profile/4335\" title=\"View profile\">Colin Park</a> (<a href=\"http://creativecommons.org/licenses/by-sa/2.0/\">cc-by-sa/2.0</a>)",
            "height": "551",
            "prominence": "84",
            "lat": "53.232426",
            "lon": "-1.9490248",
            "county": "Derbyshire"
        },
        {
            "id": "9",
            "slug": "high-stones-howden-edge",
            "name": "High Stones (Howden Edge)",
            "gridreference": "SK187943",
            "image": "high-stones-howden-edge.webp",
            "image_attribute": "Photo &copy;&nbsp;<a href=\"https://www.geograph.org.uk/profile/40672\" title=\"View profile\">Neil Theasby</a> (<a href=\"http://creativecommons.org/licenses/by-sa/2.0/\">cc-by-sa/2.0</a>)",
            "height": "550",
            "prominence": "62",
            "lat": "53.44514",
            "lon": "-1.719925",
            "county": "South Yorkshire"
        },
        {
            "id": "10",
            "slug": "lords-seat-rushup-edge",
            "name": "Lord's Seat (Rushup Edge)",
            "gridreference": "SK111834",
            "image": "lords-seat-rushup-edge.webp",
            "image_attribute": "Photo &copy;&nbsp;<a href=\"https://www.geograph.org.uk/profile/4335\" title=\"View profile\">Colin Park</a> (<a href=\"http://creativecommons.org/licenses/by-sa/2.0/\">cc-by-sa/2.0</a>)",
            "height": "550",
            "prominence": "62",
            "lat": "53.347378",
            "lon": "-1.8347271",
            "county": "Derbyshire"
        },
        {
            "id": "11",
            "slug": "whetstone-ridge",
            "name": "Whetstone Ridge",
            "gridreference": "SK001708",
            "image": "whetstone-ridge.webp",
            "image_attribute": "Photo &copy;&nbsp;<a href=\"https://www.geograph.org.uk/profile/42541\" title=\"View profile\">Bill Boaden</a> (<a href=\"http://creativecommons.org/licenses/by-sa/2.0/\">cc-by-sa/2.0</a>)",
            "height": "547",
            "prominence": "40",
            "lat": "53.234234",
            "lon": "-1.9999601",
            "county": "Cheshire"
        },
        {
            "id": "12",
            "slug": "margery-hill",
            "name": "Margery Hill",
            "gridreference": "SK189956",
            "image": "margery-hill.webp",
            "image_attribute": "Photo &copy;&nbsp;<a href=\"https://www.geograph.org.uk/profile/11323\" title=\"View profile\">John Fielding</a> (<a href=\"http://creativecommons.org/licenses/by-sa/2.0/\">cc-by-sa/2.0</a>)",
            "height": "546",
            "prominence": "19",
            "lat": "53.456818",
            "lon": "-1.7168363",
            "county": "South Yorkshire"
        },
        {
            "id": "13",
            "slug": "featherbed-top",
            "name": "Featherbed Top",
            "gridreference": "SK090920",
            "image": "featherbed-top.webp",
            "image_attribute": "Photo &copy;&nbsp;<a href=\"https://www.geograph.org.uk/profile/42541\" title=\"View profile\">Bill Boaden</a> (<a href=\"http://creativecommons.org/licenses/by-sa/2.0/\">cc-by-sa/2.0</a>)",
            "height": "544",
            "prominence": "32",
            "lat": "53.424719",
            "lon": "-1.8660296",
            "county": "Derbyshire"
        },
        {
            "id": "14",
            "slug": "mill-hill",
            "name": "Mill Hill",
            "gridreference": "SK061904",
            "image": "mill-hill.webp",
            "image_attribute": "Photo &copy;&nbsp;<a href=\"https://www.geograph.org.uk/profile/40672\" title=\"View profile\">Neil Theasby</a> (<a href=\"http://creativecommons.org/licenses/by-sa/2.0/\">cc-by-sa/2.0</a>)",
            "height": "544",
            "prominence": "32",
            "lat": "53.410378",
            "lon": "-1.9097005",
            "county": "Derbyshire"
        },
        {
            "id": "15",
            "slug": "black-chew-head",
            "name": "Black Chew Head",
            "gridreference": "SE056019",
            "height": "542",
            "prominence": "35",
            "lat": "53.513751",
            "lon": "-1.9170215",
            "county": "Greater Manchester"
        },
        {
            "id": "16",
            "slug": "featherbed-moss",
            "name": "Featherbed Moss",
            "gridreference": "SE046011",
            "height": "541",
            "prominence": "10",
            "lat": "53.50657",
            "lon": "-1.932113",
            "county": "Derbyshire"
        },
        {
            "id": "17",
            "slug": "back-tor-derwent-edge",
            "name": "Back Tor (Derwent Edge)",
            "gridreference": "SK197909",
            "height": "538",
            "prominence": "67",
            "lat": "53.414543",
            "lon": "-1.7050809",
            "county": "Derbyshire / South Yorkshire"
        },
        {
            "id": "18",
            "slug": "alport-moor",
            "name": "Alport Moor",
            "gridreference": "SK120946",
            "height": "535",
            "prominence": "24",
            "lat": "53.44803",
            "lon": "-1.8207862",
            "county": "Derbyshire"
        },
        {
            "id": "19",
            "slug": "white-low",
            "name": "White Low",
            "gridreference": "SE086021",
            "height": "530",
            "prominence": "23",
            "lat": "53.515509",
            "lon": "-1.8717762",
            "county": "Derbyshire"
        },
        {
            "id": "20",
            "slug": "britland-edge-hill",
            "name": "Britland Edge Hill",
            "gridreference": "SE106026",
            "height": "523",
            "prominence": "20",
            "lat": "53.519967",
            "lon": "-1.8415983",
            "county": "Derbyshire / West Yorkshire"
        },
        {
            "id": "21",
            "slug": "cheeks-hill",
            "name": "Cheeks Hill",
            "gridreference": "SK026699",
            "height": "520",
            "prominence": "10",
            "lat": "53.226139",
            "lon": "-1.9625131",
            "county": "Derbyshire / Staffordshire"
        },
        {
            "id": "22",
            "slug": "cats-tor",
            "name": "Cats Tor",
            "gridreference": "SJ995759",
            "height": "518",
            "prominence": "35",
            "lat": "53.280077",
            "lon": "-2.0089589",
            "county": "Cheshire / Derbyshire"
        },
        {
            "id": "23",
            "slug": "lost-lad",
            "name": "Lost Lad",
            "gridreference": "SK193912",
            "height": "518",
            "prominence": "10",
            "lat": "53.417254",
            "lon": "-1.7110806",
            "county": "Derbyshire / South Yorkshire"
        },
        {
            "id": "24",
            "slug": "mam-tor",
            "name": "Mam Tor",
            "gridreference": "SK127836",
            "height": "517",
            "prominence": "62",
            "lat": "53.34914",
            "lon": "-1.8106853",
            "county": "Derbyshire"
        },
        {
            "id": "25",
            "slug": "oliver-hill",
            "name": "Oliver Hill",
            "gridreference": "SK027675",
            "height": "513",
            "prominence": "45",
            "lat": "53.204565",
            "lon": "-1.9610347",
            "county": "Staffordshire"
        },
        {
            "id": "26",
            "slug": "black-edge-combs-moss",
            "name": "Black Edge (Combs Moss)",
            "gridreference": "SK062770",
            "height": "507",
            "prominence": "99",
            "lat": "53.28993",
            "lon": "-1.9084538",
            "county": "Derbyshire"
        },
        {
            "id": "27",
            "slug": "shutlingsloe",
            "name": "Shutlingsloe",
            "gridreference": "SJ976695",
            "height": "506",
            "prominence": "134",
            "lat": "53.222543",
            "lon": "-2.0374038",
            "county": "Cheshire"
        },
        {
            "id": "28",
            "slug": "the-roaches",
            "name": "The Roaches",
            "gridreference": "SK001638",
            "height": "505",
            "prominence": "120",
            "lat": "53.171312",
            "lon": "-1.9999597",
            "county": "Staffordshire"
        },
        {
            "id": "29",
            "slug": "combs-head",
            "name": "Combs Head",
            "gridreference": "SK041757",
            "height": "503",
            "prominence": "41",
            "lat": "53.278264",
            "lon": "-1.9399723",
            "county": "Derbyshire"
        },
        {
            "id": "30",
            "slug": "burbage-edge-goyts-moss",
            "name": "Burbage Edge (Goyt's Moss)",
            "gridreference": "SK029732",
            "height": "500",
            "prominence": "25",
            "lat": "53.2558",
            "lon": "-1.9579906",
            "county": "Derbyshire"
        },
        {
            "id": "31",
            "slug": "west-nab",
            "name": "West Nab",
            "gridreference": "SE076088",
            "height": "500",
            "prominence": "50",
            "lat": "53.575746",
            "lon": "-1.8866965",
            "county": "West Yorkshire"
        },
        {
            "id": "32",
            "slug": "dead-edge-end",
            "name": "Dead Edge End",
            "gridreference": "SE124017",
            "height": "499",
            "prominence": "25",
            "lat": "53.511839",
            "lon": "-1.8144858",
            "county": "Derbyshire / South Yorkshire"
        },
        {
            "id": "33",
            "slug": "ashway-moss",
            "name": "Ashway Moss",
            "gridreference": "SE033046",
            "height": "497",
            "prominence": "20",
            "lat": "53.538039",
            "lon": "-1.951678",
            "county": "Greater Manchester"
        },
        {
            "id": "34",
            "slug": "south-head",
            "name": "South Head",
            "gridreference": "SK060845",
            "height": "494",
            "prominence": "44",
            "lat": "53.357347",
            "lon": "-1.9113148",
            "county": "Derbyshire"
        },
        {
            "id": "35",
            "slug": "merryton-low",
            "name": "Merryton Low",
            "gridreference": "SK041610",
            "height": "489",
            "prominence": "54",
            "lat": "53.146128",
            "lon": "-1.9401559",
            "county": "Staffordshire"
        },
        {
            "id": "36",
            "slug": "slitherstone-hill",
            "name": "Slitherstone Hill",
            "gridreference": "SK123819",
            "height": "477",
            "prominence": "70",
            "lat": "53.333869",
            "lon": "-1.8167594",
            "county": "Derbyshire"
        },
        {
            "id": "37",
            "slug": "snailsden-pike-end",
            "name": "Snailsden Pike End",
            "gridreference": "SE132034",
            "height": "477",
            "prominence": "20",
            "lat": "53.527099",
            "lon": "-1.8023514",
            "county": "South Yorkshire"
        },
        {
            "id": "38",
            "slug": "lose-hill",
            "name": "Lose Hill",
            "gridreference": "SK153854",
            "height": "476",
            "prominence": "76",
            "lat": "53.365251",
            "lon": "-1.7715424",
            "county": "Derbyshire"
        },
        {
            "id": "39",
            "slug": "mount-famine",
            "name": "Mount Famine",
            "gridreference": "SK056849",
            "height": "473",
            "prominence": "44",
            "lat": "53.360947",
            "lon": "-1.9173177",
            "county": "Derbyshire"
        },
        {
            "id": "40",
            "slug": "high-edge",
            "name": "High Edge",
            "gridreference": "SK063688",
            "height": "472",
            "prominence": "64",
            "lat": "53.216221",
            "lon": "-1.9071131",
            "county": "Derbyshire"
        },
        {
            "id": "41",
            "slug": "bradwell-moor",
            "name": "Bradwell Moor",
            "gridreference": "SK132801",
            "height": "471",
            "prominence": "50",
            "lat": "53.317668",
            "lon": "-1.803319",
            "county": "Derbyshire"
        },
        {
            "id": "42",
            "slug": "eldon-hill",
            "name": "Eldon Hill",
            "gridreference": "SK115811",
            "height": "470",
            "prominence": "20",
            "lat": "53.326696",
            "lon": "-1.8288013",
            "county": "Derbyshire"
        },
        {
            "id": "43",
            "slug": "alphin-pike",
            "name": "Alphin Pike",
            "gridreference": "SE002028",
            "height": "469",
            "prominence": "10",
            "lat": "53.521869",
            "lon": "-1.9984533",
            "county": "Greater Manchester"
        },
        {
            "id": "44",
            "slug": "win-hill",
            "name": "Win Hill",
            "gridreference": "SK186850",
            "height": "462",
            "prominence": "144",
            "lat": "53.361551",
            "lon": "-1.7219755",
            "county": "Derbyshire"
        },
        {
            "id": "45",
            "slug": "ramshaw-rocks",
            "name": "Ramshaw Rocks",
            "gridreference": "SK020624",
            "height": "460",
            "prominence": "32",
            "lat": "53.158725",
            "lon": "-1.9715446",
            "county": "Staffordshire"
        },
        {
            "id": "46",
            "slug": "high-neb-stanage-edge",
            "name": "High Neb (Stanage Edge)",
            "gridreference": "SK227853",
            "height": "458",
            "prominence": "103",
            "lat": "53.364088",
            "lon": "-1.6603477",
            "county": "Derbyshire"
        },
        {
            "id": "47",
            "slug": "chinley-churn",
            "name": "Chinley Churn",
            "gridreference": "SK036836",
            "height": "452",
            "prominence": "17",
            "lat": "53.349279",
            "lon": "-1.947384",
            "county": "Derbyshire"
        },
        {
            "id": "48",
            "slug": "white-path-moss",
            "name": "White Path Moss",
            "gridreference": "SK251830",
            "height": "457",
            "prominence": "34",
            "lat": "53.343307",
            "lon": "-1.624465",
            "county": "Derbyshire"
        },
        {
            "id": "49",
            "slug": "foxlow-edge",
            "name": "Foxlow Edge",
            "gridreference": "SK004756",
            "height": "452",
            "prominence": "35",
            "lat": "53.27738",
            "lon": "-1.9954613",
            "county": "Derbyshire"
        },
        {
            "id": "50",
            "slug": "hollins-hill",
            "name": "Hollins Hill",
            "gridreference": "SK060679",
            "height": "451",
            "prominence": "62",
            "lat": "53.208134",
            "lon": "-1.9116222",
            "county": "Derbyshire"
        },
        {
            "id": "51",
            "slug": "chelmorton-low",
            "name": "Chelmorton Low",
            "gridreference": "SK114706",
            "height": "446",
            "prominence": "63",
            "lat": "53.232317",
            "lon": "-1.8306756",
            "county": "Derbyshire"
        },
        {
            "id": "52",
            "slug": "sough-top-taddington-moor",
            "name": "Sough Top (Taddington Moor)",
            "gridreference": "SK133709",
            "height": "438",
            "prominence": "20",
            "lat": "53.23497",
            "lon": "-1.8021996",
            "county": "Derbyshire"
        },
        {
            "id": "53",
            "slug": "stanedge-pole",
            "name": "Stanedge Pole",
            "gridreference": "SK247844",
            "height": "438",
            "prominence": "24",
            "lat": "53.355909",
            "lon": "-1.630364",
            "county": "Derbyshire / South Yorkshire"
        },
        {
            "id": "54",
            "slug": "corbar-hill",
            "name": "Corbar Hill",
            "gridreference": "SK051743",
            "height": "437",
            "prominence": "20",
            "lat": "53.265672",
            "lon": "-1.9249973",
            "county": "Derbyshire"
        },
        {
            "id": "55",
            "slug": "higger-tor",
            "name": "Higger Tor",
            "gridreference": "SK257819",
            "height": "434",
            "prominence": "15",
            "lat": "53.333391",
            "lon": "-1.6155422",
            "county": "Derbyshire"
        },
        {
            "id": "56",
            "slug": "grin-low",
            "name": "Grin Low",
            "gridreference": "SK054718",
            "height": "430",
            "prominence": "45",
            "lat": "53.243197",
            "lon": "-1.9205411",
            "county": "Derbyshire"
        },
        {
            "id": "57",
            "slug": "sir-william-hill-eyam-moor",
            "name": "Sir William Hill (Eyam Moor)",
            "gridreference": "SK215778",
            "height": "429",
            "prominence": "122",
            "lat": "53.296724",
            "lon": "-1.6788861",
            "county": "Derbyshire"
        },
        {
            "id": "58",
            "slug": "chrome-hill",
            "name": "Chrome Hill",
            "gridreference": "SK070673",
            "height": "425",
            "prominence": "45",
            "lat": "53.202729",
            "lon": "-1.8966627",
            "county": "Derbyshire"
        },
        {
            "id": "59",
            "slug": "high-wheeldon",
            "name": "High Wheeldon",
            "gridreference": "SK100660",
            "height": "422",
            "prominence": "25",
            "lat": "53.190996",
            "lon": "-1.8517913",
            "county": "Derbyshire"
        },
        {
            "id": "60",
            "slug": "burton-bole-shatton-moor",
            "name": "Burton Bole (Shatton Moor)",
            "gridreference": "SK195807",
            "height": "417",
            "prominence": "48",
            "lat": "53.322868",
            "lon": "-1.7087154",
            "county": "Derbyshire"
        },
        {
            "id": "61",
            "slug": "durham-edge-abney-moor",
            "name": "Durham Edge (Abney Moor)",
            "gridreference": "SK180794",
            "height": "416",
            "prominence": "40",
            "lat": "53.311236",
            "lon": "-1.7313074",
            "county": "Derbyshire"
        },
        {
            "id": "62",
            "slug": "sponds-hill",
            "name": "Sponds Hill",
            "gridreference": "SJ970802",
            "height": "413",
            "prominence": "72",
            "lat": "53.318719",
            "lon": "-2.0464951",
            "county": "Cheshire"
        },
        {
            "id": "63",
            "slug": "cown-edge",
            "name": "Cown Edge",
            "gridreference": "SK021920",
            "height": "411",
            "prominence": "85",
            "lat": "53.42479",
            "lon": "-1.9698641",
            "county": "Derbyshire"
        },
        {
            "id": "64",
            "slug": "black-hill-whaley-moor",
            "name": "Black Hill (Whaley Moor)",
            "gridreference": "SJ989821",
            "height": "410",
            "prominence": "105",
            "lat": "53.335806",
            "lon": "-2.0179812",
            "county": "Cheshire"
        },
        {
            "id": "65",
            "slug": "gautries-hill",
            "name": "Gautries Hill",
            "gridreference": "SK099810",
            "height": "410",
            "prominence": "85",
            "lat": "53.325829",
            "lon": "-1.8528267",
            "county": "Derbyshire"
        },
        {
            "id": "66",
            "slug": "hen-cloud",
            "name": "Hen Cloud",
            "gridreference": "SK008615",
            "height": "410",
            "prominence": "60",
            "lat": "53.150637",
            "lon": "-1.9894929",
            "county": "Staffordshire"
        },
        {
            "id": "67",
            "slug": "croker-hill",
            "name": "Croker Hill",
            "gridreference": "SJ933677",
            "height": "402",
            "prominence": "98",
            "lat": "53.206325",
            "lon": "-2.1017685",
            "county": "Cheshire"
        },
        {
            "id": "68",
            "slug": "revidge",
            "name": "Revidge",
            "gridreference": "SK077599",
            "height": "400",
            "prominence": "40",
            "lat": "53.136202",
            "lon": "-1.8863588",
            "county": "Staffordshire"
        },
        {
            "id": "69",
            "slug": "aleck-low",
            "name": "Aleck Low",
            "gridreference": "SK173595",
            "height": "398",
            "prominence": "53",
            "lat": "53.132383",
            "lon": "-1.7428856",
            "county": "Derbyshire"
        },
        {
            "id": "70",
            "slug": "longstone-moor",
            "name": "Longstone Moor",
            "gridreference": "SK189733",
            "height": "395",
            "prominence": "110",
            "lat": "53.256374",
            "lon": "-1.7181605",
            "county": "Derbyshire"
        },
        {
            "id": "71",
            "slug": "pilsbury-hill",
            "name": "Pilsbury Hill",
            "gridreference": "SK121639",
            "height": "395",
            "prominence": "40",
            "lat": "53.172076",
            "lon": "-1.8204405",
            "county": "Derbyshire"
        },
        {
            "id": "72",
            "slug": "wolfscote-hill",
            "name": "Wolfscote Hill",
            "gridreference": "SK136583",
            "height": "388",
            "prominence": "100",
            "lat": "53.121703",
            "lon": "-1.7982365",
            "county": "Derbyshire"
        },
        {
            "id": "73",
            "slug": "gun",
            "name": "Gun",
            "gridreference": "SJ970615",
            "height": "385",
            "prominence": "168",
            "lat": "53.150629",
            "lon": "-2.0463123",
            "county": "Staffordshire"
        },
        {
            "id": "74",
            "slug": "crook-hill",
            "name": "Crook Hill",
            "gridreference": "SK183872",
            "height": "382",
            "prominence": "84",
            "lat": "53.381336",
            "lon": "-1.7263568",
            "county": "Derbyshire"
        },
        {
            "id": "75",
            "slug": "carder-low",
            "name": "Carder Low",
            "gridreference": "SK130626",
            "height": "380",
            "prominence": "58",
            "lat": "53.16037",
            "lon": "-1.807029",
            "county": "Derbyshire"
        },
        {
            "id": "76",
            "slug": "harborough-rocks",
            "name": "Harborough Rocks",
            "gridreference": "SK243553",
            "height": "379",
            "prominence": "65",
            "lat": "53.094358",
            "lon": "-1.638581",
            "county": "Derbyshire"
        },
        {
            "id": "77",
            "slug": "lantern-pike",
            "name": "Lantern Pike",
            "gridreference": "SK025882",
            "height": "373",
            "prominence": "88",
            "lat": "53.390632",
            "lon": "-1.9638734",
            "county": "Derbyshire"
        },
        {
            "id": "78",
            "slug": "minninglow",
            "name": "Minninglow",
            "gridreference": "SK209573",
            "height": "372",
            "prominence": "58",
            "lat": "53.112479",
            "lon": "-1.6892228",
            "county": "Derbyshire"
        },
        {
            "id": "79",
            "slug": "wetton-hill",
            "name": "Wetton Hill",
            "gridreference": "SK104563",
            "height": "372",
            "prominence": "55",
            "lat": "53.103796",
            "lon": "-1.8461162",
            "county": "Staffordshire"
        },
        {
            "id": "80",
            "slug": "harland-edge-beeley-moor",
            "name": "Harland Edge (Beeley Moor)",
            "gridreference": "SK293687",
            "height": "371",
            "prominence": "88",
            "lat": "53.214557",
            "lon": "-1.5626968",
            "county": "Derbyshire"
        },
        {
            "id": "81",
            "slug": "eccles-pike",
            "name": "Eccles Pike",
            "gridreference": "SK035812",
            "height": "370",
            "prominence": "132",
            "lat": "53.327706",
            "lon": "-1.9489119",
            "county": "Derbyshire"
        },
        {
            "id": "82",
            "slug": "wardlow-hay-cop",
            "name": "Wardlow Hay Cop",
            "gridreference": "SK179740",
            "height": "370",
            "prominence": "47",
            "lat": "53.2627",
            "lon": "-1.7331106",
            "county": "Derbyshire"
        },
        {
            "id": "83",
            "slug": "ecton-hill",
            "name": "Ecton Hill",
            "gridreference": "SK100580",
            "height": "369",
            "prominence": "82",
            "lat": "53.119085",
            "lon": "-1.8520383",
            "county": "Staffordshire"
        },
        {
            "id": "84",
            "slug": "tissington-hill",
            "name": "Tissington Hill",
            "gridreference": "SK151526",
            "height": "369",
            "prominence": "95",
            "lat": "53.070426",
            "lon": "-1.7760888",
            "county": "Derbyshire"
        },
        {
            "id": "85",
            "slug": "blakelow-hill-bonsall-moor",
            "name": "Blakelow Hill (Bonsall Moor)",
            "gridreference": "SK255594",
            "height": "367",
            "prominence": "69",
            "lat": "53.131157",
            "lon": "-1.6203376",
            "county": "Derbyshire"
        },
        {
            "id": "86",
            "slug": "musden-low",
            "name": "Musden Low",
            "gridreference": "SK118500",
            "height": "361",
            "prominence": "63",
            "lat": "53.047137",
            "lon": "-1.8254344",
            "county": "Staffordshire"
        },
        {
            "id": "87",
            "slug": "parkhouse-hill",
            "name": "Parkhouse Hill",
            "gridreference": "SK079669",
            "height": "360",
            "prominence": "35",
            "lat": "53.199121",
            "lon": "-1.883199",
            "county": "Derbyshire"
        },
        {
            "id": "88",
            "slug": "bole-hill-burton-moor",
            "name": "Bole Hill (Burton Moor)",
            "gridreference": "SK184676",
            "height": "356",
            "prominence": "50",
            "lat": "53.205156",
            "lon": "-1.7259821",
            "county": "Derbyshire"
        },
        {
            "id": "89",
            "slug": "the-cloud",
            "name": "The Cloud",
            "gridreference": "SJ904636",
            "height": "343",
            "prominence": "170",
            "lat": "53.169426",
            "lon": "-2.1450622",
            "county": "Cheshire / Staffordshire"
        },
        {
            "id": "90",
            "slug": "fin-cop",
            "name": "Fin Cop",
            "gridreference": "SK175709",
            "height": "327",
            "prominence": "90",
            "lat": "53.234849",
            "lon": "-1.7392764",
            "county": "Derbyshire"
        },
        {
            "id": "91",
            "slug": "stanton-moor",
            "name": "Stanton Moor",
            "gridreference": "SK245629",
            "height": "323",
            "prominence": "108",
            "lat": "53.162664",
            "lon": "-1.6350165",
            "county": "Derbyshire"
        },
        {
            "id": "92",
            "slug": "bolehill-cromford-moor",
            "name": "Bolehill (Cromford Moor)",
            "gridreference": "SK294554",
            "height": "323",
            "prominence": "105",
            "lat": "53.095002",
            "lon": "-1.5624158",
            "county": "Derbyshire"
        },
        {
            "id": "93",
            "slug": "lees-moor",
            "name": "Lees Moor",
            "gridreference": "SK249674",
            "height": "304",
            "prominence": "142",
            "lat": "53.203095",
            "lon": "-1.6286851",
            "county": "Derbyshire"
        },
        {
            "id": "94",
            "slug": "thorpe-cloud",
            "name": "Thorpe Cloud",
            "gridreference": "SK151510",
            "height": "287",
            "prominence": "79",
            "lat": "53.056043",
            "lon": "-1.7761633",
            "county": "Derbyshire"
        },
        {
            "id": "95",
            "slug": "harthill-moor",
            "name": "Harthill Moor",
            "gridreference": "SK210627",
            "height": "272",
            "prominence": "100",
            "lat": "53.161015",
            "lon": "-1.6873771",
            "county": "Derbyshire"
        }
    ]
}